{
  "type": "FeatureCollection",
  "features": [
    {
      "type": "Feature",
      "properties": {
        "storeid": "41",
        "list_name": "REI",
        "name": "Framingham store",
        "address": "375 Cochituate Rd",
        "city": "Framingham",
        "state": "MA",
        "zip_code": "01701",
        "full_address": "375 Cochituate Rd, Framingham MA, 1701",
        "latitude": "42.3054074",
        "longitude": "-71.3936633",
        "phone": "(508) 270-6325",
        "latitude_roof": "42.305342",
        "longitude_roof": "-71.393716",
        "category": "Retail",
        "country": "United States",
        "county": "Middlesex County",
        "hours": "Monday - Friday 10am - 9pm Saturday 10am - 9pm Sunday 11am - 6pm"
      },
      "geometry": {
        "type": "Point",
        "coordinates": [
          -71.393663,
          42.305407
        ]
      }
    },
    {
      "type": "Feature",
      "properties": {
        "storeid": "15",
        "list_name": "REI",
        "name": "Reading store",
        "address": "279 Salem St",
        "city": "Reading",
        "state": "MA",
        "zip_code": "01867",
        "full_address": "279 Salem St, Reading MA, 1867",
        "latitude": "42.5255701",
        "longitude": "-71.0870109",
        "phone": "(781) 944-5103",
        "latitude_roof": "42.5255541",
        "longitude_roof": "-71.0870054",
        "category": "Retail",
        "country": "United States",
        "county": "Middlesex County",
        "hours": "Monday - Friday 10am - 9pm Saturday 10am - 9pm Sunday 11am - 6pm"
      },
      "geometry": {
        "type": "Point",
        "coordinates": [
          -71.087011,
          42.52557
        ]
      }
    },
    {
      "type": "Feature",
      "properties": {
        "storeid": "65",
        "list_name": "REI",
        "name": "Hingham store",
        "address": "98 Old Derby St",
        "city": "Hingham",
        "state": "MA",
        "zip_code": "02043",
        "full_address": "98 Old Derby St, Hingham MA, 2043",
        "latitude": "42.1773074",
        "longitude": "-70.9109865",
        "phone": "(781) 740-9430",
        "latitude_roof": "42.1800571",
        "longitude_roof": "-70.907382",
        "category": "Sporting Goods",
        "country": "United States",
        "county": "Plymouth County",
        "hours": "Monday - Friday 10am - 9pm Saturday 10am - 9pm Sunday 11am - 6pm"
      },
      "geometry": {
        "type": "Point",
        "coordinates": [
          -70.910987,
          42.177307
        ]
      }
    },
    {
      "type": "Feature",
      "properties": {
        "storeid": "63",
        "list_name": "REI",
        "name": "Boston store",
        "address": "401 Park Dr",
        "city": "Boston",
        "state": "MA",
        "zip_code": "02215",
        "full_address": "401 Park Dr, Boston MA, 2215",
        "latitude": "42.3448472",
        "longitude": "-71.1023307",
        "phone": "(617) 236-0746",
        "latitude_roof": "42.3446671",
        "longitude_roof": "-71.1023575",
        "category": "Retail",
        "country": "United States",
        "county": "Suffolk County",
        "hours": "Monday - Friday 10am - 9pm Saturday 10am - 8pm Sunday 11am - 6pm"
      },
      "geometry": {
        "type": "Point",
        "coordinates": [
          -71.102331,
          42.344847
        ]
      }
    },
    {
      "type": "Feature",
      "properties": {
        "storeid": "90",
        "list_name": "REI",
        "name": "Cranston store",
        "address": "22 Chapel View Blvd",
        "city": "Cranston",
        "state": "RI",
        "zip_code": "02920",
        "full_address": "22 Chapel View Blvd, Cranston RI, 2920",
        "latitude": "41.7544766",
        "longitude": "-71.4608098",
        "phone": "(401) 275-5250",
        "latitude_roof": "41.755235",
        "longitude_roof": "-71.459434",
        "category": "Sporting Goods",
        "country": "United States",
        "county": "Providence County",
        "hours": "Monday - Friday 10am - 9pm Saturday 10am - 8pm Sunday 11am - 6pm"
      },
      "geometry": {
        "type": "Point",
        "coordinates": [
          -71.46081,
          41.754477
        ]
      }
    },
    {
      "type": "Feature",
      "properties": {
        "storeid": "85",
        "list_name": "REI",
        "name": "West Hartford store",
        "address": "71 Raymond Road",
        "city": "West Hartford",
        "state": "CT",
        "zip_code": "06107",
        "full_address": "71 Raymond Road, West Hartford CT, 6107",
        "latitude": "41.7602461",
        "longitude": "-72.7399176",
        "phone": "(860) 233-2211",
        "latitude_roof": "41.7601543",
        "longitude_roof": "-72.7392278",
        "category": "Sporting Goods",
        "country": "United States",
        "county": "Hartford County",
        "hours": "Monday - Friday 10am - 9pm Saturday 10am - 9pm Sunday 11am - 6pm"
      },
      "geometry": {
        "type": "Point",
        "coordinates": [
          -72.739918,
          41.760246
        ]
      }
    },
    {
      "type": "Feature",
      "properties": {
        "storeid": "148",
        "list_name": "REI",
        "name": "Milford store",
        "address": "1587 Boston Post Rd",
        "city": "Milford",
        "state": "CT",
        "zip_code": "06460",
        "full_address": "1587 Boston Post Rd, Milford CT, 6460",
        "latitude": "41.2455467",
        "longitude": "-73.0264148",
        "phone": "(203) 783-0945",
        "latitude_roof": "41.2457765",
        "longitude_roof": "-73.0273788",
        "category": "Retail",
        "country": "United States",
        "county": "New Haven County",
        "hours": "Monday - Friday 10am - 9pm Saturday 10am - 9pm Sunday 10am - 6pm"
      },
      "geometry": {
        "type": "Point",
        "coordinates": [
          -73.026415,
          41.245547
        ]
      }
    },
    {
      "type": "Feature",
      "properties": {
        "storeid": "112",
        "list_name": "REI",
        "name": "Norwalk store",
        "address": "189 Connecticut Ave",
        "city": "Norwalk",
        "state": "CT",
        "zip_code": "06854",
        "full_address": "189 Connecticut Ave, Norwalk CT, 6854",
        "latitude": "41.103625",
        "longitude": "-73.4325192",
        "phone": "(203) 838-1938",
        "latitude_roof": "41.1035834",
        "longitude_roof": "-73.4325601",
        "category": "Retail",
        "country": "United States",
        "county": "Fairfield County",
        "hours": "Monday - Friday 10am - 9pm Saturday 10am - 9pm Sunday 10am - 6pm"
      },
      "geometry": {
        "type": "Point",
        "coordinates": [
          -73.432519,
          41.103625
        ]
      }
    },
    {
      "type": "Feature",
      "properties": {
        "storeid": "117",
        "list_name": "REI",
        "name": "Paramus store",
        "address": "2200 Bergen Town Center",
        "city": "Paramus",
        "state": "NJ",
        "zip_code": "07652",
        "full_address": "2200 Bergen Town Center, Paramus NJ, 7652",
        "latitude": "40.9140268",
        "longitude": "-74.0552119",
        "phone": "(201) 226-1560",
        "latitude_roof": "40.915099",
        "longitude_roof": "-74.0598207",
        "category": "Sporting Goods",
        "country": "United States",
        "county": "Bergen County",
        "hours": "Monday - Friday 10am - 9:30pm Saturday 10am - 9:30pm Sunday Closed"
      },
      "geometry": {
        "type": "Point",
        "coordinates": [
          -74.055212,
          40.914027
        ]
      }
    },
    {
      "type": "Feature",
      "properties": {
        "storeid": "110",
        "list_name": "REI",
        "name": "East Hanover store",
        "address": "280 NJ-10",
        "city": "East Hanover",
        "state": "NJ",
        "zip_code": "07936",
        "full_address": "280 NJ-10, East Hanover NJ, 7936",
        "latitude": "40.8064145",
        "longitude": "-74.369469",
        "phone": "(973) 581-1938",
        "latitude_roof": "40.8058921",
        "longitude_roof": "-74.3695009",
        "category": "Sporting Goods",
        "country": "United States",
        "county": "Morris County",
        "hours": "Monday - Friday 10am - 9pm Saturday 10am - 9pm Sunday 10am - 7pm"
      },
      "geometry": {
        "type": "Point",
        "coordinates": [
          -74.369469,
          40.806415
        ]
      }
    },
    {
      "type": "Feature",
      "properties": {
        "storeid": "77",
        "list_name": "REI",
        "name": "Marlton store",
        "address": "501 Rte 73 South",
        "city": "Marlton",
        "state": "NJ",
        "zip_code": "08053",
        "full_address": "501 Rte 73 South, Marlton NJ, 8053",
        "latitude": "39.8796461",
        "longitude": "-74.9231607",
        "phone": "(856) 810-1938",
        "latitude_roof": "39.8801005",
        "longitude_roof": "-74.9231768",
        "category": "Sporting Goods",
        "country": "United States",
        "county": "Burlington County",
        "hours": "Monday - Friday 10am - 9pm Saturday 10am - 9pm Sunday 10am - 6pm"
      },
      "geometry": {
        "type": "Point",
        "coordinates": [
          -74.923161,
          39.879646
        ]
      }
    },
    {
      "type": "Feature",
      "properties": {
        "storeid": "138",
        "list_name": "REI",
        "name": "Princeton store",
        "address": "3371 US Highway 1",
        "city": "Lawrenceville",
        "state": "NJ",
        "zip_code": "08648",
        "full_address": "3371 US Highway 1, Lawrenceville NJ, 8648",
        "latitude": "40.2984867",
        "longitude": "-74.6847091",
        "phone": "(609) 750-1938",
        "latitude_roof": "40.297732",
        "longitude_roof": "-74.685772",
        "category": "Retail",
        "country": "United States",
        "county": "Mercer County",
        "hours": "Monday - Friday 10am - 9pm Saturday 10am - 9pm Sunday 10am - 7pm"
      },
      "geometry": {
        "type": "Point",
        "coordinates": [
          -74.684709,
          40.298487
        ]
      }
    },
    {
      "type": "Feature",
      "properties": {
        "storeid": "119",
        "list_name": "REI",
        "name": "SoHo flagship store",
        "address": "303 Lafayette St",
        "city": "New York",
        "state": "NY",
        "zip_code": "10012",
        "full_address": "303 Lafayette St, New York NY, 10012",
        "latitude": "40.7248439",
        "longitude": "-73.9952165",
        "phone": "(212) 680-1938",
        "latitude_roof": "40.7248439",
        "longitude_roof": "-73.9952165",
        "category": "Retail",
        "country": "United States",
        "county": "New York County",
        "hours": "Monday - Friday 10am - 9pm Saturday 10am - 9pm Sunday 11am - 8pm"
      },
      "geometry": {
        "type": "Point",
        "coordinates": [
          -73.995216,
          40.724844
        ]
      }
    },
    {
      "type": "Feature",
      "properties": {
        "storeid": "116",
        "list_name": "REI",
        "name": "Yonkers store",
        "address": "49 Fitzgerald St",
        "city": "Yonkers",
        "state": "NY",
        "zip_code": "10710",
        "full_address": "49 Fitzgerald St, Yonkers NY, 10710",
        "latitude": "40.9662479",
        "longitude": "-73.8567337",
        "phone": "(914) 410-9500",
        "latitude_roof": "40.9662479",
        "longitude_roof": "-73.8567337",
        "category": "Sporting Goods",
        "country": "United States",
        "county": "Westchester County",
        "hours": "Monday - Friday 10am - 9:30pm Saturday 10am - 9:30pm Sunday 11am - 7pm"
      },
      "geometry": {
        "type": "Point",
        "coordinates": [
          -73.856734,
          40.966248
        ]
      }
    },
    {
      "type": "Feature",
      "properties": {
        "storeid": "115",
        "list_name": "REI",
        "name": "Carle Place store",
        "address": "144 Glen Cove Rd",
        "city": "Carle Place",
        "state": "NY",
        "zip_code": "11514",
        "full_address": "144 Glen Cove Rd, Carle Place NY, 11514",
        "latitude": "40.7442196",
        "longitude": "-73.617838",
        "phone": "(516) 873-8540",
        "latitude_roof": "40.7441712",
        "longitude_roof": "-73.6178769",
        "category": "Retail",
        "country": "United States",
        "county": "Nassau County",
        "hours": "Monday - Friday 10am - 9pm Saturday 10am - 9pm Sunday 11am - 7pm"
      },
      "geometry": {
        "type": "Point",
        "coordinates": [
          -73.617838,
          40.74422
        ]
      }
    },
    {
      "type": "Feature",
      "properties": {
        "storeid": "81",
        "list_name": "REI",
        "name": "Pittsburgh store",
        "address": "412 S 27th St",
        "city": "Pittsburgh",
        "state": "PA",
        "zip_code": "15203",
        "full_address": "412 S 27th St, Pittsburgh PA, 15203",
        "latitude": "40.4286166",
        "longitude": "-79.9659131",
        "phone": "(412) 488-9410",
        "latitude_roof": "40.4286076",
        "longitude_roof": "-79.9660099",
        "category": "Sporting Goods",
        "country": "United States",
        "county": "Allegheny County",
        "hours": "Monday - Friday 10am - 9pm Saturday 9am - 9pm Sunday 11am - 6pm"
      },
      "geometry": {
        "type": "Point",
        "coordinates": [
          -79.965913,
          40.428617
        ]
      }
    },
    {
      "type": "Feature",
      "properties": {
        "storeid": "105",
        "list_name": "REI",
        "name": "Pittsburgh Settlers Ridge store",
        "address": "600 Settlers Ridge Center Drive",
        "city": "Pittsburgh",
        "state": "PA",
        "zip_code": "15205",
        "full_address": "600 Settlers Ridge Center Drive, Pittsburgh PA, 15205",
        "latitude": "40.4400412",
        "longitude": "-80.1493805",
        "phone": "(412) 747-1180",
        "latitude_roof": "40.4400412",
        "longitude_roof": "-80.1493805",
        "category": "Sporting Goods",
        "country": "United States",
        "hours": "Monday - Friday 10am - 9pm Saturday 10am - 9pm Sunday 11am - 6pm"
      },
      "geometry": {
        "type": "Point",
        "coordinates": [
          -80.149381,
          40.440041
        ]
      }
    },
    {
      "type": "Feature",
      "properties": {
        "storeid": "139",
        "list_name": "REI",
        "name": "King of Prussia store",
        "address": "161 Town Square Pl",
        "city": "King of Prussia",
        "state": "PA",
        "zip_code": "19406",
        "full_address": "161 Town Square Pl, King of Prussia PA, 19406",
        "latitude": "40.0826869",
        "longitude": "-75.4052457",
        "phone": "(484) 231-1703",
        "latitude_roof": "40.0823537",
        "longitude_roof": "-75.404629",
        "category": "Sporting Goods",
        "country": "United States",
        "county": "Montgomery County",
        "hours": "Monday - Friday 10am - 9pm Saturday 10am - 9pm Sunday 11am - 6pm"
      },
      "geometry": {
        "type": "Point",
        "coordinates": [
          -75.405246,
          40.082687
        ]
      }
    },
    {
      "type": "Feature",
      "properties": {
        "storeid": "23",
        "list_name": "REI",
        "name": "Conshohocken/Plymouth Meeting store",
        "address": "200 W Ridge Pike",
        "city": "Conshohocken",
        "state": "PA",
        "zip_code": "19428",
        "full_address": "200 W Ridge Pike, Conshohocken PA, 19428",
        "latitude": "40.0957085",
        "longitude": "-75.2878507",
        "phone": "(610) 940-0809",
        "latitude_roof": "40.0957474",
        "longitude_roof": "-75.2876505",
        "category": "Sporting Goods",
        "country": "United States",
        "county": "Montgomery County",
        "hours": "Monday - Friday 10am - 9pm Saturday 10am - 9pm Sunday 11am - 6pm"
      },
      "geometry": {
        "type": "Point",
        "coordinates": [
          -75.287851,
          40.095709
        ]
      }
    },
    {
      "type": "Feature",
      "properties": {
        "storeid": "141",
        "list_name": "REI",
        "name": "Christiana store",
        "address": "2300 Fashion Center Blvd",
        "city": "Newark",
        "state": "DE",
        "zip_code": "19702",
        "full_address": "2300 Fashion Center Blvd, Newark DE, 19702",
        "latitude": "39.6737507",
        "longitude": "-75.6492662",
        "phone": "(302) 369-1938",
        "latitude_roof": "39.673915",
        "longitude_roof": "-75.64967",
        "category": "Retail",
        "country": "United States",
        "hours": "Monday - Friday 10am - 9pm Saturday 9am - 9pm Sunday 11am - 6pm"
      },
      "geometry": {
        "type": "Point",
        "coordinates": [
          -75.649266,
          39.673751
        ]
      }
    },
    {
      "type": "Feature",
      "properties": {
        "storeid": "144",
        "list_name": "REI",
        "name": "Washington DC flagship store",
        "address": "201 M Street NE",
        "city": "Washington",
        "state": "DC",
        "zip_code": "20002",
        "full_address": "201 M Street NE, Washington DC, 20002",
        "latitude": "38.9052422",
        "longitude": "-77.002596",
        "phone": "(202) 543-2040",
        "latitude_roof": "38.9049817",
        "longitude_roof": "-77.0029318",
        "category": "Sporting Goods",
        "country": "United States",
        "hours": "Monday - Friday 10am - 9pm Saturday 10am - 9pm Sunday 11am - 7pm"
      },
      "geometry": {
        "type": "Point",
        "coordinates": [
          -77.002596,
          38.905242
        ]
      }
    },
    {
      "type": "Feature",
      "properties": {
        "storeid": "74",
        "list_name": "REI",
        "name": "Rockville store",
        "address": "910 Rose Avenue",
        "city": "North Bethesda",
        "state": "MD",
        "zip_code": "20852",
        "full_address": "910 Rose Avenue, North Bethesda MD, 20852",
        "latitude": "39.0508142",
        "longitude": "-77.1158864",
        "phone": "(301) 770-1751",
        "latitude_roof": "39.0508519",
        "longitude_roof": "-77.1159286",
        "category": "Sporting Goods",
        "country": "United States",
        "county": "Montgomery County",
        "hours": "Monday - Friday 10am - 9pm Saturday 10am - 9pm Sunday 11am - 6pm"
      },
      "geometry": {
        "type": "Point",
        "coordinates": [
          -77.115886,
          39.050814
        ]
      }
    },
    {
      "type": "Feature",
      "properties": {
        "storeid": "114",
        "list_name": "REI",
        "name": "Columbia store",
        "address": "6100 Dobbin Rd",
        "city": "Columbia",
        "state": "MD",
        "zip_code": "21045",
        "full_address": "6100 Dobbin Rd, Columbia MD, 21045",
        "latitude": "39.1981037",
        "longitude": "-76.810284",
        "phone": "(410) 872-1742",
        "latitude_roof": "39.1983161",
        "longitude_roof": "-76.8106175",
        "category": "Sporting Goods",
        "country": "United States",
        "county": "Howard County",
        "hours": "Monday - Friday 10am - 9pm Saturday 10am - 9pm Sunday 11am - 7pm"
      },
      "geometry": {
        "type": "Point",
        "coordinates": [
          -76.810284,
          39.198104
        ]
      }
    },
    {
      "type": "Feature",
      "properties": {
        "storeid": "45",
        "list_name": "REI",
        "name": "Timonium store",
        "address": "63 W Aylesbury Rd",
        "city": "Timonium",
        "state": "MD",
        "zip_code": "21093",
        "full_address": "63 W Aylesbury Rd, Timonium MD, 21093",
        "latitude": "39.4389847",
        "longitude": "-76.628726",
        "phone": "(410) 252-5920",
        "latitude_roof": "39.4389186",
        "longitude_roof": "-76.6288064",
        "category": "Sporting Goods",
        "country": "United States",
        "county": "Baltimore County",
        "hours": "Monday - Friday 10am - 9pm Saturday 10am - 9pm Sunday 11am - 6pm"
      },
      "geometry": {
        "type": "Point",
        "coordinates": [
          -76.628726,
          39.438985
        ]
      }
    },
    {
      "type": "Feature",
      "properties": {
        "storeid": "67",
        "list_name": "REI",
        "name": "Fairfax store",
        "address": "11950 Grand Commons Ave",
        "city": "Fairfax",
        "state": "VA",
        "zip_code": "22030",
        "full_address": "11950 Grand Commons Ave, Fairfax VA, 22030",
        "latitude": "38.858033",
        "longitude": "-77.3583769",
        "phone": "(571) 522-6568",
        "latitude_roof": "38.8580001",
        "longitude_roof": "-77.358343",
        "category": "Retail",
        "country": "United States",
        "county": "Fairfax County",
        "hours": "Monday - Friday 10am - 9pm Saturday 10am - 9pm Sunday 11am - 7pm"
      },
      "geometry": {
        "type": "Point",
        "coordinates": [
          -77.358377,
          38.858033
        ]
      }
    },
    {
      "type": "Feature",
      "properties": {
        "storeid": "20",
        "list_name": "REI",
        "name": "Baileys Crossroads store",
        "address": "3509 Carlin Springs Rd",
        "city": "Bailey's Crossroads",
        "state": "VA",
        "zip_code": "22041",
        "full_address": "3509 Carlin Springs Rd, Bailey's Crossroads VA, 22041",
        "latitude": "38.848845",
        "longitude": "-77.1232581",
        "phone": "(703) 379-9400",
        "latitude_roof": "38.8488544",
        "longitude_roof": "-77.1231968",
        "category": "Sporting Goods",
        "country": "United States",
        "county": "Fairfax County",
        "hours": "Monday - Friday 10am - 9pm Saturday 10am - 9pm Sunday 11am - 6pm"
      },
      "geometry": {
        "type": "Point",
        "coordinates": [
          -77.123258,
          38.848845
        ]
      }
    },
    {
      "type": "Feature",
      "properties": {
        "storeid": "129",
        "list_name": "REI",
        "name": "Tysons store",
        "address": "8209 Watson Street",
        "city": "McLean",
        "state": "VA",
        "zip_code": "22102",
        "full_address": "8209 Watson Street, McLean VA, 22102",
        "latitude": "38.9184374",
        "longitude": "-77.2287332",
        "phone": "(703) 506-1938",
        "latitude_roof": "38.9183279",
        "longitude_roof": "-77.2287821",
        "category": "Sporting Goods",
        "country": "United States",
        "county": "Fairfax County",
        "hours": "Monday - Friday 10am - 9pm Saturday 10am - 9pm Sunday 11am - 6pm"
      },
      "geometry": {
        "type": "Point",
        "coordinates": [
          -77.228733,
          38.918437
        ]
      }
    },
    {
      "type": "Feature",
      "properties": {
        "storeid": "121",
        "list_name": "REI",
        "name": "Woodbridge store",
        "address": "15200 Potomac Town Place",
        "city": "Woodbridge",
        "state": "VA",
        "zip_code": "22191",
        "full_address": "15200 Potomac Town Place, Woodbridge VA, 22191",
        "latitude": "38.6273638",
        "longitude": "-77.2878345",
        "phone": "(703) 583-1938",
        "latitude_roof": "38.6272528",
        "longitude_roof": "-77.2876185",
        "category": "Sporting Goods",
        "country": "United States",
        "county": "Prince William County",
        "hours": "Monday - Friday 10am - 9pm Saturday 10am - 9pm Sunday 11am - 6pm"
      },
      "geometry": {
        "type": "Point",
        "coordinates": [
          -77.287835,
          38.627364
        ]
      }
    },
    {
      "type": "Feature",
      "properties": {
        "storeid": "104",
        "list_name": "REI",
        "name": "Richmond store",
        "address": "2020 Old Brick Rd",
        "city": "Glen Allen",
        "state": "VA",
        "zip_code": "23060",
        "full_address": "2020 Old Brick Rd, Glen Allen VA, 23060",
        "latitude": "37.6480274",
        "longitude": "-77.5971329",
        "phone": "(804) 360-1381",
        "latitude_roof": "37.647994",
        "longitude_roof": "-77.597209",
        "category": "Sporting Goods",
        "country": "United States",
        "county": "Henrico County",
        "hours": "Monday - Friday 10am - 9pm Saturday 10am - 9pm Sunday 11am - 7pm"
      },
      "geometry": {
        "type": "Point",
        "coordinates": [
          -77.597133,
          37.648027
        ]
      }
    },
    {
      "type": "Feature",
      "properties": {
        "storeid": "142",
        "list_name": "REI",
        "name": "Virginia Beach store",
        "address": "350 Independence Blvd",
        "city": "Virginia Beach",
        "state": "VA",
        "zip_code": "23462",
        "full_address": "350 Independence Blvd, Virginia Beach VA, 23462",
        "latitude": "36.8470031",
        "longitude": "-76.1356248",
        "phone": "(757) 687-1938",
        "latitude_roof": "36.8467587",
        "longitude_roof": "-76.1359962",
        "category": "Sporting Goods",
        "country": "United States",
        "hours": "Monday - Friday 10am - 9pm Saturday 10am - 9pm Sunday 11am - 6pm"
      },
      "geometry": {
        "type": "Point",
        "coordinates": [
          -76.135625,
          36.847003
        ]
      }
    },
    {
      "type": "Feature",
      "properties": {
        "storeid": "88",
        "list_name": "REI",
        "name": "Greensboro store",
        "address": "3334 West Friendly Ave",
        "city": "Greensboro",
        "state": "NC",
        "zip_code": "27410",
        "full_address": "3334 West Friendly Ave, Greensboro NC, 27410",
        "latitude": "36.087301",
        "longitude": "-79.839339",
        "phone": "(336) 323-3117",
        "latitude_roof": "36.087301",
        "longitude_roof": "-79.839339",
        "category": "Sporting Goods",
        "country": "United States",
        "county": "Guilford County",
        "hours": "Monday - Friday 10am - 9pm Saturday 10am - 9pm Sunday 11am - 7pm"
      },
      "geometry": {
        "type": "Point",
        "coordinates": [
          -79.839339,
          36.087301
        ]
      }
    },
    {
      "type": "Feature",
      "properties": {
        "storeid": "27",
        "list_name": "REI",
        "name": "Cary store",
        "address": "1751 Walnut St",
        "city": "Cary",
        "state": "NC",
        "zip_code": "27511",
        "full_address": "1751 Walnut St, Cary NC, 27511",
        "latitude": "35.764102",
        "longitude": "-78.7452296",
        "phone": "(919) 460-9995",
        "latitude_roof": "35.7641975",
        "longitude_roof": "-78.7451116",
        "category": "Sporting Goods",
        "country": "United States",
        "county": "Wake County",
        "hours": "Monday - Friday 10am - 9pm Saturday 10am - 9pm Sunday 11am - 6pm"
      },
      "geometry": {
        "type": "Point",
        "coordinates": [
          -78.74523,
          35.764102
        ]
      }
    },
    {
      "type": "Feature",
      "properties": {
        "storeid": "80",
        "list_name": "REI",
        "name": "Raleigh store",
        "address": "4291 The Circle at North Hills",
        "city": "Raleigh",
        "state": "NC",
        "zip_code": "27609",
        "full_address": "4291 The Circle at North Hills, Raleigh NC, 27609",
        "latitude": "35.8373158",
        "longitude": "-78.6422434",
        "phone": "(919) 571-5031",
        "latitude_roof": "35.8374387",
        "longitude_roof": "-78.64218",
        "category": "Retail",
        "country": "United States",
        "county": "Wake County",
        "hours": "Monday - Friday 10am - 9pm Saturday 10am - 9pm Sunday 11am - 6pm"
      },
      "geometry": {
        "type": "Point",
        "coordinates": [
          -78.642243,
          35.837316
        ]
      }
    },
    {
      "type": "Feature",
      "properties": {
        "storeid": "68",
        "list_name": "REI",
        "name": "Durham store",
        "address": "6911 Fayetteville Rd",
        "city": "Durham",
        "state": "NC",
        "zip_code": "27713",
        "full_address": "6911 Fayetteville Rd, Durham NC, 27713",
        "latitude": "35.9031332",
        "longitude": "-78.935984",
        "phone": "(919) 806-3442",
        "latitude_roof": "35.9031918",
        "longitude_roof": "-78.9360895",
        "category": "Sporting Goods",
        "country": "United States",
        "county": "Durham County",
        "hours": "Monday - Friday 10am - 9pm Saturday 10am - 9pm Sunday 11am - 6pm"
      },
      "geometry": {
        "type": "Point",
        "coordinates": [
          -78.935984,
          35.903133
        ]
      }
    },
    {
      "type": "Feature",
      "properties": {
        "storeid": "86",
        "list_name": "REI",
        "name": "Pineville store",
        "address": "11067 Carolina Place Parkway",
        "city": "Pineville",
        "state": "NC",
        "zip_code": "28134",
        "full_address": "11067 Carolina Place Parkway, Pineville NC, 28134",
        "latitude": "35.080847",
        "longitude": "-80.8770854",
        "phone": "(704) 341-7405",
        "latitude_roof": "35.080847",
        "longitude_roof": "-80.8770854",
        "category": "Retail",
        "country": "United States",
        "county": "Mecklenburg County",
        "hours": "Monday - Friday 10am - 9pm Saturday 10am - 9pm Sunday 11am - 6pm"
      },
      "geometry": {
        "type": "Point",
        "coordinates": [
          -80.877085,
          35.080847
        ]
      }
    },
    {
      "type": "Feature",
      "properties": {
        "storeid": "94",
        "list_name": "REI",
        "name": "Charlotte store",
        "address": "9755 Northlake Centre Pky",
        "city": "Charlotte",
        "state": "NC",
        "zip_code": "28216",
        "full_address": "9755 Northlake Centre Pky, Charlotte NC, 28216",
        "latitude": "35.3479866",
        "longitude": "-80.8579303",
        "phone": "(704) 921-0320",
        "latitude_roof": "35.3480292",
        "longitude_roof": "-80.8579034",
        "category": "Sporting Goods",
        "country": "United States",
        "county": "Mecklenburg County",
        "hours": "Monday - Friday 10am - 9pm Saturday 10am - 9pm Sunday 11am - 6pm"
      },
      "geometry": {
        "type": "Point",
        "coordinates": [
          -80.85793,
          35.347987
        ]
      }
    },
    {
      "type": "Feature",
      "properties": {
        "storeid": "96",
        "list_name": "REI",
        "name": "Asheville store",
        "address": "31 Schenck Parkway",
        "city": "Asheville",
        "state": "NC",
        "zip_code": "28803",
        "full_address": "31 Schenck Parkway, Asheville NC, 28803",
        "latitude": "35.4856699",
        "longitude": "-82.5536669",
        "phone": "(828) 687-0918",
        "latitude_roof": "35.4857252",
        "longitude_roof": "-82.553633",
        "category": "Retail",
        "country": "United States",
        "county": "Buncombe County",
        "hours": "Monday - Friday 10am - 9pm Saturday 10am - 9pm Sunday 11am - 6pm"
      },
      "geometry": {
        "type": "Point",
        "coordinates": [
          -82.553667,
          35.48567
        ]
      }
    },
    {
      "type": "Feature",
      "properties": {
        "storeid": "122",
        "list_name": "REI",
        "name": "Greenville store",
        "address": "1140 Woodruff Rd.",
        "city": "Greenville",
        "state": "SC",
        "zip_code": "29607",
        "full_address": "1140 Woodruff Rd., Greenville SC, 29607",
        "latitude": "34.8255774",
        "longitude": "-82.3010094",
        "phone": "(864) 297-0588",
        "latitude_roof": "34.8258121",
        "longitude_roof": "-82.3010026",
        "category": "Retail",
        "country": "United States",
        "county": "Greenville County",
        "hours": "Monday - Friday 10am - 9pm Saturday 10am - 9pm Sunday 11am - 7pm"
      },
      "geometry": {
        "type": "Point",
        "coordinates": [
          -82.301009,
          34.825577
        ]
      }
    },
    {
      "type": "Feature",
      "properties": {
        "storeid": "140",
        "list_name": "REI",
        "name": "Alpharetta store",
        "address": "7531 North Point Pkwy",
        "city": "Alpharetta",
        "state": "GA",
        "zip_code": "30022",
        "full_address": "7531 North Point Pkwy, Alpharetta GA, 30022",
        "latitude": "34.0423496",
        "longitude": "-84.3057605",
        "phone": "(770) 998-2622",
        "latitude_roof": "34.0423734",
        "longitude_roof": "-84.3056944",
        "category": "Sporting Goods",
        "country": "United States",
        "county": "Fulton County",
        "hours": "Monday - Friday 10am - 9pm Saturday 9am - 9pm Sunday 11am - 6pm"
      },
      "geometry": {
        "type": "Point",
        "coordinates": [
          -84.305761,
          34.04235
        ]
      }
    },
    {
      "type": "Feature",
      "properties": {
        "storeid": "19",
        "list_name": "REI",
        "name": "Atlanta store",
        "address": "1800 Northeast Expy NE",
        "city": "Atlanta",
        "state": "GA",
        "zip_code": "30329",
        "full_address": "1800 Northeast Expy NE, Atlanta GA, 30329",
        "latitude": "33.840156",
        "longitude": "-84.321498",
        "phone": "(404) 633-6508",
        "latitude_roof": "33.8399575",
        "longitude_roof": "-84.321386",
        "category": "Sporting Goods",
        "country": "United States",
        "county": "Dekalb County",
        "hours": "Monday - Friday 10am - 9pm Saturday 9am - 9pm Sunday 11am - 6pm"
      },
      "geometry": {
        "type": "Point",
        "coordinates": [
          -84.321498,
          33.840156
        ]
      }
    },
    {
      "type": "Feature",
      "properties": {
        "storeid": "38",
        "list_name": "REI",
        "name": "Perimeter store",
        "address": "1165 Perimeter Ctr W",
        "city": "Atlanta",
        "state": "GA",
        "zip_code": "30338",
        "full_address": "1165 Perimeter Ctr W, Atlanta GA, 30338",
        "latitude": "33.929513",
        "longitude": "-84.3486181",
        "phone": "(770) 901-9200",
        "latitude_roof": "33.9290201",
        "longitude_roof": "-84.3489117",
        "category": "Sporting Goods",
        "country": "United States",
        "county": "Fulton County",
        "hours": "Monday - Friday 10am - 9pm Saturday 9am - 9pm Sunday 11am - 6pm"
      },
      "geometry": {
        "type": "Point",
        "coordinates": [
          -84.348618,
          33.929513
        ]
      }
    },
    {
      "type": "Feature",
      "properties": {
        "storeid": "62",
        "list_name": "REI",
        "name": "Buford store",
        "address": "1600 Mall of Georgia Blvd",
        "city": "Buford",
        "state": "GA",
        "zip_code": "30519",
        "full_address": "1600 Mall of Georgia Blvd, Buford GA, 30519",
        "latitude": "34.0640176",
        "longitude": "-83.9948441",
        "phone": "(770) 831-0676",
        "latitude_roof": "34.06362",
        "longitude_roof": "-83.99527",
        "category": "Sporting Goods",
        "country": "United States",
        "county": "Gwinnett County",
        "hours": "Monday - Friday 10am - 9pm Saturday 9am - 9pm Sunday 11am - 6pm"
      },
      "geometry": {
        "type": "Point",
        "coordinates": [
          -83.994844,
          34.064018
        ]
      }
    },
    {
      "type": "Feature",
      "properties": {
        "storeid": "127",
        "list_name": "REI",
        "name": "Jacksonville store",
        "address": "4862 Big Island Drive",
        "city": "Jacksonville",
        "state": "FL",
        "zip_code": "32246",
        "full_address": "4862 Big Island Drive, Jacksonville FL, 32246",
        "latitude": "30.2535175",
        "longitude": "-81.5321218",
        "phone": "(904) 996-1613",
        "latitude_roof": "30.2535175",
        "longitude_roof": "-81.5321218",
        "category": "Sporting Goods",
        "country": "United States",
        "county": "Duval County",
        "hours": "Monday - Friday 10am - 9pm Saturday 9am - 9pm Sunday 10am - 7pm"
      },
      "geometry": {
        "type": "Point",
        "coordinates": [
          -81.532122,
          30.253518
        ]
      }
    },
    {
      "type": "Feature",
      "properties": {
        "storeid": "146",
        "list_name": "REI",
        "name": "Winter Park store",
        "address": "430 N Orlando Ave",
        "city": "Winter Park",
        "state": "FL",
        "zip_code": "32789",
        "full_address": "430 N Orlando Ave, Winter Park FL, 32789",
        "latitude": "28.6008661",
        "longitude": "-81.3651228",
        "phone": "(407) 647-0731",
        "latitude_roof": "28.6009018",
        "longitude_roof": "-81.3645263",
        "category": "Sporting Goods",
        "country": "United States",
        "county": "Orange County",
        "hours": "Monday - Friday 10am - 9pm Saturday 9am - 9pm Sunday 10am - 7pm"
      },
      "geometry": {
        "type": "Point",
        "coordinates": [
          -81.365123,
          28.600866
        ]
      }
    },
    {
      "type": "Feature",
      "properties": {
        "storeid": "47",
        "list_name": "REI",
        "name": "Brentwood store",
        "address": "261 Franklin Rd",
        "city": "Brentwood",
        "state": "TN",
        "zip_code": "37027",
        "full_address": "261 Franklin Rd, Brentwood TN, 37027",
        "latitude": "36.0303587",
        "longitude": "-86.7918224",
        "phone": "(615) 376-4248",
        "latitude_roof": "36.0303587",
        "longitude_roof": "-86.7918224",
        "category": "Retail",
        "country": "United States",
        "county": "Williamson County",
        "hours": "Monday - Friday 10am - 9pm Saturday 10am - 9pm Sunday 11am - 6pm"
      },
      "geometry": {
        "type": "Point",
        "coordinates": [
          -86.791822,
          36.030359
        ]
      }
    },
    {
      "type": "Feature",
      "properties": {
        "storeid": "133",
        "list_name": "REI",
        "name": "Knoxville store",
        "address": "6700 Papermill Drive",
        "city": "Knoxville",
        "state": "TN",
        "zip_code": "37919",
        "full_address": "6700 Papermill Drive, Knoxville TN, 37919",
        "latitude": "35.9335066",
        "longitude": "-84.0145116",
        "phone": "(865) 584-1938",
        "latitude_roof": "35.9335673",
        "longitude_roof": "-84.0147243",
        "category": "Sporting Goods",
        "country": "United States",
        "county": "Knox County",
        "hours": "Monday - Friday 10am - 9pm Saturday 9am - 9pm Sunday 11am - 6pm"
      },
      "geometry": {
        "type": "Point",
        "coordinates": [
          -84.014512,
          35.933507
        ]
      }
    },
    {
      "type": "Feature",
      "properties": {
        "storeid": "131",
        "list_name": "REI",
        "name": "Columbus-Easton store",
        "address": "4150 Worth Ave",
        "city": "Columbus",
        "state": "OH",
        "zip_code": "43219",
        "full_address": "4150 Worth Ave, Columbus OH, 43219",
        "latitude": "40.0554045",
        "longitude": "-82.9081764",
        "phone": "(614) 475-1938",
        "latitude_roof": "40.055524",
        "longitude_roof": "-82.9077214",
        "category": "Sporting Goods",
        "country": "United States",
        "county": "Franklin County",
        "hours": "Monday - Friday 10am - 9pm Saturday 10am - 9pm Sunday 11am - 7pm"
      },
      "geometry": {
        "type": "Point",
        "coordinates": [
          -82.908176,
          40.055405
        ]
      }
    },
    {
      "type": "Feature",
      "properties": {
        "storeid": "135",
        "list_name": "REI",
        "name": "Columbus-Dublin store",
        "address": "6424 Sawmill Road",
        "city": "Columbus",
        "state": "OH",
        "zip_code": "43235",
        "full_address": "6424 Sawmill Road, Columbus OH, 43235",
        "latitude": "40.0987015",
        "longitude": "-83.0902988",
        "phone": "(614) 799-1938",
        "latitude_roof": "40.0987015",
        "longitude_roof": "-83.0902988",
        "category": "Retail",
        "country": "United States",
        "county": "Franklin County",
        "hours": "Monday - Friday 10am - 9pm Saturday 10am - 9pm Sunday 10am - 6pm"
      },
      "geometry": {
        "type": "Point",
        "coordinates": [
          -83.090299,
          40.098701
        ]
      }
    },
    {
      "type": "Feature",
      "properties": {
        "storeid": "8",
        "list_name": "REI",
        "name": "Denver flagship store",
        "address": "1416 Platte St",
        "city": "Denver",
        "state": "CO",
        "zip_code": "80202",
        "full_address": "1416 Platte St, Denver CO, 80202",
        "latitude": "39.7553288",
        "longitude": "-105.0094454",
        "phone": "(303) 756-3100",
        "latitude_roof": "39.7555992",
        "longitude_roof": "-105.0097781",
        "category": "Retail",
        "country": "United States",
        "county": "Denver County",
        "hours": "Monday - Friday 9am - 9pm Saturday 9am - 9pm Sunday 9am - 7pm"
      },
      "geometry": {
        "type": "Point",
        "coordinates": [
          -105.009445,
          39.755329
        ]
      }
    },
    {
      "type": "Feature",
      "properties": {
        "storeid": "103",
        "list_name": "REI",
        "name": "Kennesaw store",
        "address": "740 Barrett Parkway",
        "city": "Kennesaw",
        "state": "GA",
        "zip_code": "30144-6860",
        "full_address": "740 Barrett Parkway, Kennesaw GA, 30144-6860",
        "latitude": "34.0094754",
        "longitude": "-84.573743",
        "phone": "(770) 425-4480",
        "latitude_roof": "34.008816",
        "longitude_roof": "-84.5738181",
        "category": "Sporting Goods",
        "country": "United States",
        "county": "Cobb County",
        "hours": "Monday - Friday 10am - 9pm Saturday 9am - 9pm Sunday 11am - 7pm"
      },
      "geometry": {
        "type": "Point",
        "coordinates": [
          -84.573743,
          34.009475
        ]
      }
    }
  ]
}